[
  {
    "id": "001",
    "name": "Ghost Rider: Spirit Of Vengeance",
    "town": "N/A",
    "tier": "Standard",
    "category": "Action",
    "phone": "N/A",
    "address": "N/A",
    "hours": "N/A",
    "website": "https://www.amazon.com/dp/B00845Y8V6?tag=werewolf3788-20",
    "facebook": "ourflorafb-20",
    "bio": "Johnny Blaze is hiding out in Eastern Europe when he is called upon to stop the devil.",
    "coupon_text": "Watch Now",
    "established": "2012",
    "coupon_link": "https://www.amazon.com/dp/B00845Y8V6?tag=werewolf3788-20"
  },
  {
    "id": "002",
    "name": "John Carter",
    "town": "N/A",
    "tier": "Standard",
    "category": "Sci-Fi",
    "phone": "N/A",
    "address": "N/A",
    "hours": "N/A",
    "website": "https://www.amazon.com/dp/B00867GCVO?tag=werewolf3788-20",
    "facebook": "ourflorafb-20",
    "bio": "A Civil War vet discovers a barren planet inhabited by 12-foot tall barbarians.",
    "coupon_text": "Watch Now",
    "established": "2012",
    "coupon_link": "https://www.amazon.com/dp/B00867GCVO?tag=werewolf3788-20"
  },
  {
    "id": "003",
    "name": "Grown Ups",
    "town": "N/A",
    "tier": "Standard",
    "category": "Comedy",
    "phone": "N/A",
    "address": "N/A",
    "hours": "N/A",
    "website": "https://www.amazon.com/dp/B0045W066U?tag=werewolf3788-20",
    "facebook": "ourflorafb-20",
    "bio": "Five friends and former teammates reunite for a Fourth of July holiday weekend.",
    "coupon_text": "Watch Now",
    "established": "2010",
    "coupon_link": "https://www.amazon.com/dp/B0045W066U?tag=werewolf3788-20"
  },
  {
    "id": "004",
    "name": "Underdog",
    "town": "N/A",
    "tier": "Standard",
    "category": "Family",
    "phone": "N/A",
    "address": "N/A",
    "hours": "N/A",
    "website": "https://www.amazon.com/dp/B0013XW0S6?tag=werewolf3788-20",
    "facebook": "ourflorafb-20",
    "bio": "A beagle must use his newly-found superpowers to protect Capitol City.",
    "coupon_text": "Watch Now",
    "established": "2007",
    "coupon_link": "https://www.amazon.com/dp/B0013XW0S6?tag=werewolf3788-20"
  },
  {
    "id": "005",
    "name": "Percy Jackson & The Olympians: The Lightning Thief",
    "town": "N/A",
    "tier": "Standard",
    "category": "Fantasy",
    "phone": "N/A",
    "address": "N/A",
    "hours": "N/A",
    "website": "https://www.amazon.com/dp/B003LYZVM6?tag=werewolf3788-20",
    "facebook": "ourflorafb-20",
    "bio": "A teenager discovers he's the descendant of a Greek god.",
    "coupon_text": "Watch Now",
    "established": "2010",
    "coupon_link": "https://www.amazon.com/dp/B003LYZVM6?tag=werewolf3788-20"
  },
  {
    "id": "006",
    "name": "Journey 2: The Mysterious Island",
    "town": "N/A",
    "tier": "Standard",
    "category": "Adventure",
    "phone": "N/A",
    "address": "N/A",
    "hours": "N/A",
    "website": "https://www.amazon.com/dp/B007X5Z3K8?tag=werewolf3788-20",
    "facebook": "ourflorafb-20",
    "bio": "Sean Anderson partners with his mom's husband on a mission to find his grandfather.",
    "coupon_text": "Watch Now",
    "established": "2012",
    "coupon_link": "https://www.amazon.com/dp/B007X5Z3K8?tag=werewolf3788-20"
  },
  {
    "id": "007",
    "name": "Happy Feet Two",
    "town": "N/A",
    "tier": "Standard",
    "category": "Animation",
    "phone": "N/A",
    "address": "N/A",
    "hours": "N/A",
    "website": "https://www.amazon.com/dp/B0079I8SGO?tag=werewolf3788-20",
    "facebook": "ourflorafb-20",
    "bio": "Mumble's son, Erik, is struggling to realize his talents in the Emperor Penguin world.",
    "coupon_text": "Watch Now",
    "established": "2011",
    "coupon_link": "https://www.amazon.com/dp/B0079I8SGO?tag=werewolf3788-20"
  },
  {
    "id": "008",
    "name": "Blazing Saddles",
    "town": "N/A",
    "tier": "Premium",
    "category": "Comedy/Western",
    "phone": "N/A",
    "address": "N/A",
    "hours": "N/A",
    "website": "https://www.amazon.com/dp/B000I9S686?tag=werewolf3788-20",
    "facebook": "ourflorafb-20",
    "bio": "In order to ruin a western town, a corrupt politician appoints a black Sheriff.",
    "coupon_text": "Watch Now",
    "established": "1974",
    "coupon_link": "https://www.amazon.com/dp/B000I9S686?tag=werewolf3788-20"
  },
  {
    "id": "009",
    "name": "Hercules",
    "town": "N/A",
    "tier": "Standard",
    "category": "Animation/Family",
    "phone": "N/A",
    "address": "N/A",
    "hours": "N/A",
    "website": "https://www.amazon.com/dp/B00EAFSTV6?tag=werewolf3788-20",
    "facebook": "ourflorafb-20",
    "bio": "The son of Zeus must become a true hero on Earth to regain his divinity.",
    "coupon_text": "Watch Now",
    "established": "1997",
    "coupon_link": "https://www.amazon.com/dp/B00EAFSTV6?tag=werewolf3788-20"
  },
  {
    "id": "010",
    "name": "How to Train Your Dragon",
    "town": "N/A",
    "tier": "Standard",
    "category": "Animation",
    "phone": "N/A",
    "address": "N/A",
    "hours": "N/A",
    "website": "https://www.amazon.com/dp/B00466K9PC?tag=werewolf3788-20",
    "facebook": "ourflorafb-20",
    "bio": "A hapless young Viking aspires to hunt dragons and becomes the unlikely friend of a young dragon.",
    "coupon_text": "Watch Now",
    "established": "2010",
    "coupon_link": "https://www.amazon.com/dp/B00466K9PC?tag=werewolf3788-20"
  },
  {
    "id": "033",
    "name": "Wicked: For Good",
    "town": "N/A",
    "tier": "Premium",
    "category": "Musical/Fantasy",
    "phone": "N/A",
    "address": "N/A",
    "hours": "N/A",
    "website": "https://www.amazon.com/dp/B0DK9P56V1?tag=werewolf3788-20",
    "facebook": "ourflorafb-20",
    "bio": "The cinematic conclusion to the untold story of the witches of Oz.",
    "coupon_text": "Watch on Amazon",
    "established": "2025",
    "coupon_link": "https://www.amazon.com/dp/B0DK9P56V1?tag=werewolf3788-20"
  },
  {
    "id": "034",
    "name": "The Private Eyes",
    "town": "N/A",
    "tier": "Standard",
    "category": "Comedy/Mystery",
    "phone": "N/A",
    "address": "N/A",
    "hours": "N/A",
    "website": "https://www.amazon.com/dp/B000056N6Z?tag=werewolf3788-20",
    "facebook": "ourflorafb-20",
    "bio": "Two bumbling American detectives are hired to solve a murder in a mysterious English manor.",
    "coupon_text": "Watch Now",
    "established": "1980",
    "coupon_link": "https://www.amazon.com/dp/B000056N6Z?tag=werewolf3788-20"
  },
  {
    "id": "035",
    "name": "The Year Without A Santa Claus",
    "town": "N/A",
    "tier": "Standard",
    "category": "Holiday/Animation",
    "phone": "N/A",
    "address": "N/A",
    "hours": "N/A",
    "website": "https://www.amazon.com/dp/B000VMA66E?tag=werewolf3788-20",
    "facebook": "ourflorafb-20",
    "bio": "When a weary Santa decides to skip Christmas, Mrs. Claus and two elves set out to change his mind.",
    "coupon_text": "Holiday Classic",
    "established": "1974",
    "coupon_link": "https://www.amazon.com/dp/B000VMA66E?tag=werewolf3788-20"
  },
  {
    "id": "036",
    "name": "Predator: Badlands",
    "town": "N/A",
    "tier": "Premium",
    "category": "Sci-Fi/Action",
    "phone": "N/A",
    "address": "N/A",
    "hours": "N/A",
    "website": "https://www.amazon.com/dp/ASIN_PENDING?tag=werewolf3788-20",
    "facebook": "ourflorafb-20",
    "bio": "A standalone story in the Predator universe following a new group of survivors.",
    "coupon_text": "Watch Now",
    "established": "2025",
    "coupon_link": "https://www.amazon.com/dp/ASIN_PENDING?tag=werewolf3788-20"
  },
  {
    "id": "037",
    "name": "Christmas with the Kranks",
    "town": "N/A",
    "tier": "Standard",
    "category": "Comedy/Holiday",
    "phone": "N/A",
    "address": "N/A",
    "hours": "N/A",
    "website": "https://www.amazon.com/dp/B000782ALU?tag=werewolf3788-20",
    "facebook": "ourflorafb-20",
    "bio": "With their daughter away, the Kranks decide to skip Christmas, until she decides to come home.",
    "coupon_text": "Watch Now",
    "established": "2004",
    "coupon_link": "https://www.amazon.com/dp/B000782ALU?tag=werewolf3788-20"
  },
  {
    "id": "038",
    "name": "I Am Number Four",
    "town": "N/A",
    "tier": "Standard",
    "category": "Sci-Fi",
    "phone": "N/A",
    "address": "N/A",
    "hours": "N/A",
    "website": "https://www.amazon.com/dp/B004S8AUFO?tag=werewolf3788-20",
    "facebook": "ourflorafb-20",
    "bio": "Aliens and their Guardians are hiding on Earth from intergalactic bounty hunters.",
    "coupon_text": "Watch Now",
    "established": "2011",
    "coupon_link": "https://www.amazon.com/dp/B004S8AUFO?tag=werewolf3788-20"
  },
   {
    "id": "M001",
    "name": "1000 To 1: The Cory Weissman Story",
    "town": "N/A",
    "tier": "Standard",
    "category": "Drama/Sports",
    "phone": "N/A",
    "address": "N/A",
    "hours": "N/A",
    "website": "https://www.amazon.com/s?k=1000+To+1+Cory+Weissman&tag=werewolf3788-20",
    "facebook": "ourflorafb-20",
    "bio": "The true story of a young basketball player who suffers a stroke and fights to return to the court.",
    "coupon_text": "Watch Now",
    "established": "2014",
    "coupon_link": "https://www.amazon.com/s?k=1000+To+1+Cory+Weissman&tag=werewolf3788-20"
  },
  {
    "id": "M002",
    "name": "Deadpool & Wolverine",
    "town": "N/A",
    "tier": "Premium",
    "category": "Action/Marvel",
    "phone": "N/A",
    "address": "N/A",
    "hours": "N/A",
    "website": "https://www.amazon.com/dp/B0D9S5M6V1?tag=werewolf3788-20",
    "facebook": "ourflorafb-20",
    "bio": "A weary Wolverine finds himself recovering from his injuries when he comes across a loudmouth Deadpool.",
    "coupon_text": "Watch on Amazon",
    "established": "2024",
    "coupon_link": "https://www.amazon.com/dp/B0D9S5M6V1?tag=werewolf3788-20"
  },
  {
    "id": "T001",
    "name": "The Big Bang Theory",
    "town": "N/A",
    "tier": "TV Show",
    "category": "Sitcom",
    "phone": "N/A",
    "address": "N/A",
    "hours": "N/A",
    "website": "https://www.amazon.com/s?k=The+Big+Bang+Theory+Complete+Series&tag=werewolf3788-20",
    "facebook": "ourflorafb-20",
    "bio": "A woman who moves into an apartment across the hall from two brilliant but socially awkward physicists.",
    "coupon_text": "Stream Now",
    "established": "2007-2019",
    "coupon_link": "https://www.amazon.com/s?k=The+Big+Bang+Theory+Complete+Series&tag=werewolf3788-20"
  },
  {
    "id": "039",
    "name": "12 Rounds 3 Lockdown",
    "town": "N/A",
    "tier": "Standard",
    "category": "Action",
    "phone": "N/A",
    "address": "N/A",
    "hours": "N/A",
    "website": "https://www.amazon.com/s?k=12+Rounds+3+Lockdown&tag=werewolf3788-20",
    "facebook": "ourflorafb-20",
    "bio": "A police officer finds himself trapped in his own precinct while being hunted by crooked cops.",
    "coupon_text": "Watch Now",
    "established": "2015",
    "coupon_link": "https://www.amazon.com/s?k=12+Rounds+3+Lockdown&tag=werewolf3788-20"
  },
  {
    "id": "040",
    "name": "2 Guns",
    "town": "N/A",
    "tier": "Standard",
    "category": "Action/Comedy",
    "phone": "N/A",
    "address": "N/A",
    "hours": "N/A",
    "website": "https://www.amazon.com/s?k=2+Guns+Movie&tag=werewolf3788-20",
    "facebook": "ourflorafb-20",
    "bio": "Two undercover agents from different agencies are forced on the run together.",
    "coupon_text": "Watch Now",
    "established": "2013",
    "coupon_link": "https://www.amazon.com/s?k=2+Guns+Movie&tag=werewolf3788-20"
  },
  {
    "id": "041",
    "name": "2012",
    "town": "N/A",
    "tier": "Standard",
    "category": "Sci-Fi/Action",
    "phone": "N/A",
    "address": "N/A",
    "hours": "N/A",
    "website": "https://www.amazon.com/s?k=2012+Movie&tag=werewolf3788-20",
    "facebook": "ourflorafb-20",
    "bio": "A frustrated writer struggles to keep his family alive when a series of global catastrophes threatens to annihilate mankind.",
    "coupon_text": "Watch Now",
    "established": "2009",
    "coupon_link": "https://www.amazon.com/s?k=2012+Movie&tag=werewolf3788-20"
  },
  {
    "id": "042",
    "name": "21 Jump Street",
    "town": "N/A",
    "tier": "Standard",
    "category": "Comedy",
    "phone": "N/A",
    "address": "N/A",
    "hours": "N/A",
    "website": "https://www.amazon.com/s?k=21+Jump+Street&tag=werewolf3788-20",
    "facebook": "ourflorafb-20",
    "bio": "Two bumbling cops go undercover as high school students to bust a drug ring.",
    "coupon_text": "Watch Now",
    "established": "2012",
    "coupon_link": "https://www.amazon.com/s?k=21+Jump+Street&tag=werewolf3788-20"
  },
  {
    "id": "043",
    "name": "22 Jump Street",
    "town": "N/A",
    "tier": "Standard",
    "category": "Comedy",
    "phone": "N/A",
    "address": "N/A",
    "hours": "N/A",
    "website": "https://www.amazon.com/s?k=22+Jump+Street&tag=werewolf3788-20",
    "facebook": "ourflorafb-20",
    "bio": "Officers Schmidt and Jenko go undercover at a local college.",
    "coupon_text": "Watch Now",
    "established": "2014",
    "coupon_link": "https://www.amazon.com/s?k=22+Jump+Street&tag=werewolf3788-20"
  },
  {
    "id": "044",
    "name": "300: Rise of an Empire",
    "town": "N/A",
    "tier": "Standard",
    "category": "Action",
    "phone": "N/A",
    "address": "N/A",
    "hours": "N/A",
    "website": "https://www.amazon.com/s?k=300+Rise+of+an+Empire&tag=werewolf3788-20",
    "facebook": "ourflorafb-20",
    "bio": "Greek general Themistokles attempts to unite all of Greece by leading the charge that will change the course of the war.",
    "coupon_text": "Watch Now",
    "established": "2014",
    "coupon_link": "https://www.amazon.com/s?k=300+Rise+of+an+Empire&tag=werewolf3788-20"
  },
  {
    "id": "045",
    "name": "42",
    "town": "N/A",
    "tier": "Standard",
    "category": "Biography/Drama",
    "phone": "N/A",
    "address": "N/A",
    "hours": "N/A",
    "website": "https://www.amazon.com/s?k=42+Jackie+Robinson+Movie&tag=werewolf3788-20",
    "facebook": "ourflorafb-20",
    "bio": "The story of Jackie Robinson and his history-making signing with the Brooklyn Dodgers.",
    "coupon_text": "Watch Now",
    "established": "2013",
    "coupon_link": "https://www.amazon.com/s?k=42+Jackie+Robinson+Movie&tag=werewolf3788-20"
  },
  {
    "id": "046",
    "name": "57 Seconds",
    "town": "N/A",
    "tier": "Standard",
    "category": "Sci-Fi/Thriller",
    "phone": "N/A",
    "address": "N/A",
    "hours": "N/A",
    "website": "https://www.amazon.com/s?k=57+Seconds+Movie&tag=werewolf3788-20",
    "facebook": "ourflorafb-20",
    "bio": "A tech blogger discovers a time-altering ring that allows him to travel 57 seconds into the past.",
    "coupon_text": "Watch Now",
    "established": "2023",
    "coupon_link": "https://www.amazon.com/s?k=57+Seconds+Movie&tag=werewolf3788-20"
  },
  {
    "id": "047",
    "name": "65",
    "town": "N/A",
    "tier": "Standard",
    "category": "Sci-Fi/Action",
    "phone": "N/A",
    "address": "N/A",
    "hours": "N/A",
    "website": "https://www.amazon.com/s?k=65+Movie&tag=werewolf3788-20",
    "facebook": "ourflorafb-20",
    "bio": "An astronaut crashes on a mysterious planet only to discover he's actually on Earth 65 million years ago.",
    "coupon_text": "Watch Now",
    "established": "2023",
    "coupon_link": "https://www.amazon.com/s?k=65+Movie&tag=werewolf3788-20"
  },
  {
    "id": "048",
    "name": "A Good Day to Die Hard",
    "town": "N/A",
    "tier": "Standard",
    "category": "Action",
    "phone": "N/A",
    "address": "N/A",
    "hours": "N/A",
    "website": "https://www.amazon.com/s?k=A+Good+Day+to+Die+Hard&tag=werewolf3788-20",
    "facebook": "ourflorafb-20",
    "bio": "John McClane travels to Russia to help out his seemingly wayward son, Jack.",
    "coupon_text": "Watch Now",
    "established": "2013",
    "coupon_link": "https://www.amazon.com/s?k=A+Good+Day+to+Die+Hard&tag=werewolf3788-20"
  },
  {
    "id": "049",
    "name": "A Goofy Movie",
    "town": "N/A",
    "tier": "Standard",
    "category": "Animation/Family",
    "phone": "N/A",
    "address": "N/A",
    "hours": "N/A",
    "website": "https://www.amazon.com/s?k=A+Goofy+Movie&tag=werewolf3788-20",
    "facebook": "ourflorafb-20",
    "bio": "Goofy and Max embark on a cross-country fishing trip.",
    "coupon_text": "Watch Now",
    "established": "1995",
    "coupon_link": "https://www.amazon.com/s?k=A+Goofy+Movie&tag=werewolf3788-20"
  },
  {
    "id": "050",
    "name": "A History of Violence",
    "town": "N/A",
    "tier": "Standard",
    "category": "Crime/Drama",
    "phone": "N/A",
    "address": "N/A",
    "hours": "N/A",
    "website": "https://www.amazon.com/s?k=A+History+of+Violence&tag=werewolf3788-20",
    "facebook": "ourflorafb-20",
    "bio": "A mild-mannered man becomes a local hero through an act of violence, but his past comes back to haunt him.",
    "coupon_text": "Watch Now",
    "established": "2005",
    "coupon_link": "https://www.amazon.com/s?k=A+History+of+Violence&tag=werewolf3788-20"
  },
  {
    "id": "051",
    "name": "A League Of Their Own",
    "town": "N/A",
    "tier": "Standard",
    "category": "Comedy/Sports",
    "phone": "N/A",
    "address": "N/A",
    "hours": "N/A",
    "website": "https://www.amazon.com/s?k=A+League+Of+Their+Own&tag=werewolf3788-20",
    "facebook": "ourflorafb-20",
    "bio": "Two sisters join the first female professional baseball league and struggle to help it succeed.",
    "coupon_text": "Watch Now",
    "established": "1992",
    "coupon_link": "https://www.amazon.com/s?k=A+League+Of+Their+Own&tag=werewolf3788-20"
  },
  {
    "id": "052",
    "name": "A Walk to Remember",
    "town": "N/A",
    "tier": "Standard",
    "category": "Romance/Drama",
    "phone": "N/A",
    "address": "N/A",
    "hours": "N/A",
    "website": "https://www.amazon.com/s?k=A+Walk+to+Remember&tag=werewolf3788-20",
    "facebook": "ourflorafb-20",
    "bio": "The story of two North Carolina teens, Landon Carter and Jamie Sullivan, who are thrown together after Landon gets into trouble.",
    "coupon_text": "Watch Now",
    "established": "2002",
    "coupon_link": "https://www.amazon.com/s?k=A+Walk+to+Remember&tag=werewolf3788-20"
  },
  {
    "id": "053",
    "name": "A Working Man",
    "town": "N/A",
    "tier": "Standard",
    "category": "Drama",
    "phone": "N/A",
    "address": "N/A",
    "hours": "N/A",
    "website": "https://www.amazon.com/s?k=A+Working+Man+Movie&tag=werewolf3788-20",
    "facebook": "ourflorafb-20",
    "bio": "A story about a factory worker who continues to show up for work even after the plant has closed.",
    "coupon_text": "Watch Now",
    "established": "2020",
    "coupon_link": "https://www.amazon.com/s?k=A+Working+Man+Movie&tag=werewolf3788-20"
  },
  {
    "id": "054",
    "name": "A-X-L",
    "town": "N/A",
    "tier": "Standard",
    "category": "Sci-Fi/Adventure",
    "phone": "N/A",
    "address": "N/A",
    "hours": "N/A",
    "website": "https://www.amazon.com/s?k=AXL+Movie&tag=werewolf3788-20",
    "facebook": "ourflorafb-20",
    "bio": "A robotic dog developed by the military is found by a young motocross rider.",
    "coupon_text": "Watch Now",
    "established": "2018",
    "coupon_link": "https://www.amazon.com/s?k=AXL+Movie&tag=werewolf3788-20"
  },
  {
    "id": "055",
    "name": "A.I. Artificial Intelligence",
    "town": "N/A",
    "tier": "Standard",
    "category": "Sci-Fi/Drama",
    "phone": "N/A",
    "address": "N/A",
    "hours": "N/A",
    "website": "https://www.amazon.com/s?k=AI+Artificial+Intelligence&tag=werewolf3788-20",
    "facebook": "ourflorafb-20",
    "bio": "A highly advanced robotic boy longs to become real so that he can regain the love of his human mother.",
    "coupon_text": "Watch Now",
    "established": "2001",
    "coupon_link": "https://www.amazon.com/s?k=AI+Artificial+Intelligence&tag=werewolf3788-20"
  },
  {
    "id": "056",
    "name": "After Earth",
    "town": "N/A",
    "tier": "Standard",
    "category": "Sci-Fi/Action",
    "phone": "N/A",
    "address": "N/A",
    "hours": "N/A",
    "website": "https://www.amazon.com/s?k=After+Earth+Movie&tag=werewolf3788-20",
    "facebook": "ourflorafb-20",
    "bio": "A father and son crash-land on Earth 1,000 years after events forced humanity's escape.",
    "coupon_text": "Watch Now",
    "established": "2013",
    "coupon_link": "https://www.amazon.com/s?k=After+Earth+Movie&tag=werewolf3788-20"
  },
  {
    "id": "057",
    "name": "Air Bud",
    "town": "N/A",
    "tier": "Standard",
    "category": "Family/Comedy",
    "phone": "N/A",
    "address": "N/A",
    "hours": "N/A",
    "website": "https://www.amazon.com/s?k=Air+Bud&tag=werewolf3788-20",
    "facebook": "ourflorafb-20",
    "bio": "A golden retriever with an uncanny ability to play basketball joins a school team.",
    "coupon_text": "Watch Now",
    "established": "1997",
    "coupon_link": "https://www.amazon.com/s?k=Air+Bud&tag=werewolf3788-20"
  },
  {
    "id": "058",
    "name": "Air Bud: Golden Receiver",
    "town": "N/A",
    "tier": "Standard",
    "category": "Family/Comedy",
    "phone": "N/A",
    "address": "N/A",
    "hours": "N/A",
    "website": "https://www.amazon.com/s?k=Air+Bud+Golden+Receiver&tag=werewolf3788-20",
    "facebook": "ourflorafb-20",
    "bio": "The talented golden retriever takes up football.",
    "coupon_text": "Watch Now",
    "established": "1998",
    "coupon_link": "https://www.amazon.com/s?k=Air+Bud+Golden+Receiver&tag=werewolf3788-20"
  },
  {
    "id": "059",
    "name": "Air Bud: Seventh Inning Fetch",
    "town": "N/A",
    "tier": "Standard",
    "category": "Family/Comedy",
    "phone": "N/A",
    "address": "N/A",
    "hours": "N/A",
    "website": "https://www.amazon.com/s?k=Air+Bud+Seventh+Inning+Fetch&tag=werewolf3788-20",
    "facebook": "ourflorafb-20",
    "bio": "Buddy the dog masters the game of baseball.",
    "coupon_text": "Watch Now",
    "established": "2002",
    "coupon_link": "https://www.amazon.com/s?k=Air+Bud+Seventh+Inning+Fetch&tag=werewolf3788-20"
  },
  {
    "id": "060",
    "name": "Airport",
    "town": "N/A",
    "tier": "Standard",
    "category": "Thriller/Drama",
    "phone": "N/A",
    "address": "N/A",
    "hours": "N/A",
    "website": "https://www.amazon.com/s?k=Airport+1970+Movie&tag=werewolf3788-20",
    "facebook": "ourflorafb-20",
    "bio": "A bomber on board an airplane, an airport closed by snow, and various personal problems hamper air traffic.",
    "coupon_text": "Watch Now",
    "established": "1970",
    "coupon_link": "https://www.amazon.com/s?k=Airport+1970+Movie&tag=werewolf3788-20"
  },
  {
    "id": "061",
    "name": "Aladdin (1992)",
    "town": "N/A",
    "tier": "Standard",
    "category": "Animation/Family",
    "phone": "N/A",
    "address": "N/A",
    "hours": "N/A",
    "website": "https://www.amazon.com/s?k=Aladdin+1992+Movie&tag=werewolf3788-20",
    "facebook": "ourflorafb-20",
    "bio": "A kindhearted street urchin and a power-hungry Grand Vizier vie for a magic lamp that has the power to make their deepest wishes come true.",
    "coupon_text": "Watch Now",
    "established": "1992",
    "coupon_link": "https://www.amazon.com/s?k=Aladdin+1992+Movie&tag=werewolf3788-20"
  },
  {
    "id": "062",
    "name": "Aladdin (2019)",
    "town": "N/A",
    "tier": "Standard",
    "category": "Fantasy/Musical",
    "phone": "N/A",
    "address": "N/A",
    "hours": "N/A",
    "website": "https://www.amazon.com/s?k=Aladdin+2019+Movie&tag=werewolf3788-20",
    "facebook": "ourflorafb-20",
    "bio": "Live-action adaptation of the Disney animated classic.",
    "coupon_text": "Watch Now",
    "established": "2019",
    "coupon_link": "https://www.amazon.com/s?k=Aladdin+2019+Movie&tag=werewolf3788-20"
  },
  {
    "id": "063",
    "name": "Aladdin and the King of Thieves",
    "town": "N/A",
    "tier": "Standard",
    "category": "Animation/Family",
    "phone": "N/A",
    "address": "N/A",
    "hours": "N/A",
    "website": "https://www.amazon.com/s?k=Aladdin+and+the+King+of+Thieves&tag=werewolf3788-20",
    "facebook": "ourflorafb-20",
    "bio": "Aladdin discovers that his long-lost father is the leader of the Forty Thieves.",
    "coupon_text": "Watch Now",
    "established": "1996",
    "coupon_link": "https://www.amazon.com/s?k=Aladdin+and+the+King+of+Thieves&tag=werewolf3788-20"
  },
  {
    "id": "064",
    "name": "Aladdin II: The Return of Jafar",
    "town": "N/A",
    "tier": "Standard",
    "category": "Animation/Family",
    "phone": "N/A",
    "address": "N/A",
    "hours": "N/A",
    "website": "https://www.amazon.com/s?k=The+Return+of+Jafar&tag=werewolf3788-20",
    "facebook": "ourflorafb-20",
    "bio": "Jafar returns for revenge after being trapped in a lamp.",
    "coupon_text": "Watch Now",
    "established": "1994",
    "coupon_link": "https://www.amazon.com/s?k=The+Return+of+Jafar&tag=werewolf3788-20"
  },
  {
    "id": "065",
    "name": "Alice in Wonderland (1951)",
    "town": "N/A",
    "tier": "Standard",
    "category": "Animation/Family",
    "phone": "N/A",
    "address": "N/A",
    "hours": "N/A",
    "website": "https://www.amazon.com/s?k=Alice+in+Wonderland+1951&tag=werewolf3788-20",
    "facebook": "ourflorafb-20",
    "bio": "Alice stumbles into the magical world of Wonderland.",
    "coupon_text": "Watch Now",
    "established": "1951",
    "coupon_link": "https://www.amazon.com/s?k=Alice+in+Wonderland+1951&tag=werewolf3788-20"
  },
  {
    "id": "066",
    "name": "Alice in Wonderland (2010)",
    "town": "N/A",
    "tier": "Standard",
    "category": "Fantasy/Adventure",
    "phone": "N/A",
    "address": "N/A",
    "hours": "N/A",
    "website": "https://www.amazon.com/s?k=Alice+in+Wonderland+2010&tag=werewolf3788-20",
    "facebook": "ourflorafb-20",
    "bio": "Nineteen-year-old Alice returns to the magical world from her childhood adventure.",
    "coupon_text": "Watch Now",
    "established": "2010",
    "coupon_link": "https://www.amazon.com/s?k=Alice+in+Wonderland+2010&tag=werewolf3788-20"
  },
  {
    "id": "067",
    "name": "Alice Through the Looking Glass",
    "town": "N/A",
    "tier": "Standard",
    "category": "Fantasy/Adventure",
    "phone": "N/A",
    "address": "N/A",
    "hours": "N/A",
    "website": "https://www.amazon.com/s?k=Alice+Through+the+Looking+Glass&tag=werewolf3788-20",
    "facebook": "ourflorafb-20",
    "bio": "Alice returns to Wonderland and travels back in time to save the Mad Hatter.",
    "coupon_text": "Watch Now",
    "established": "2016",
    "coupon_link": "https://www.amazon.com/s?k=Alice+Through+the+Looking+Glass&tag=werewolf3788-20"
  },
  {
    "id": "068",
    "name": "Alien: Covenant",
    "town": "N/A",
    "tier": "Standard",
    "category": "Sci-Fi/Horror",
    "phone": "N/A",
    "address": "N/A",
    "hours": "N/A",
    "website": "https://www.amazon.com/s?k=Alien+Covenant+Movie&tag=werewolf3788-20",
    "facebook": "ourflorafb-20",
    "bio": "The crew of a colony ship discovers an uncharted paradise, but soon finds a dark threat.",
    "coupon_text": "Watch Now",
    "established": "2017",
    "coupon_link": "https://www.amazon.com/s?k=Alien+Covenant+Movie&tag=werewolf3788-20"
  },
  {
    "id": "069",
    "name": "Alita: Battle Angel",
    "town": "N/A",
    "tier": "Standard",
    "category": "Sci-Fi/Action",
    "phone": "N/A",
    "address": "N/A",
    "hours": "N/A",
    "website": "https://www.amazon.com/s?k=Alita+Battle+Angel&tag=werewolf3788-20",
    "facebook": "ourflorafb-20",
    "bio": "A deactivated cyborg is revived, but cannot remember anything of her past and goes on a quest to find who she is.",
    "coupon_text": "Watch Now",
    "established": "2019",
    "coupon_link": "https://www.amazon.com/s?k=Alita+Battle+Angel&tag=werewolf3788-20"
  },
  {
    "id": "070",
    "name": "Alpha",
    "town": "N/A",
    "tier": "Standard",
    "category": "Adventure/Drama",
    "phone": "N/A",
    "address": "N/A",
    "hours": "N/A",
    "website": "https://www.amazon.com/s?k=Alpha+Movie&tag=werewolf3788-20",
    "facebook": "ourflorafb-20",
    "bio": "In the prehistoric past, a young man struggles to return home after being separated from his tribe.",
    "coupon_text": "Watch Now",
    "established": "2018",
    "coupon_link": "https://www.amazon.com/s?k=Alpha+Movie&tag=werewolf3788-20"
  },
  {
    "id": "071",
    "name": "Alvin and the Chipmunks",
    "town": "N/A",
    "tier": "Standard",
    "category": "Family/Comedy",
    "phone": "N/A",
    "address": "N/A",
    "hours": "N/A",
    "website": "https://www.amazon.com/s?k=Alvin+and+the+Chipmunks+Movie&tag=werewolf3788-20",
    "facebook": "ourflorafb-20",
    "bio": "Three musical chipmunks are discovered by an aspiring songwriter.",
    "coupon_text": "Watch Now",
    "established": "2007",
    "coupon_link": "https://www.amazon.com/s?k=Alvin+and+the+Chipmunks+Movie&tag=werewolf3788-20"
  },
  {
    "id": "072",
    "name": "Alvin and the Chipmunks: Chipwrecked",
    "town": "N/A",
    "tier": "Standard",
    "category": "Family/Comedy",
    "phone": "N/A",
    "address": "N/A",
    "hours": "N/A",
    "website": "https://www.amazon.com/s?k=Alvin+and+the+Chipmunks+Chipwrecked&tag=werewolf3788-20",
    "facebook": "ourflorafb-20",
    "bio": "The Chipmunks and Chipettes end up marooned on a tropical island.",
    "coupon_text": "Watch Now",
    "established": "2011",
    "coupon_link": "https://www.amazon.com/s?k=Alvin+and+the+Chipmunks+Chipwrecked&tag=werewolf3788-20"
  },
  {
    "id": "073",
    "name": "Alvin and the Chipmunks: The Road Chip",
    "town": "N/A",
    "tier": "Standard",
    "category": "Family/Comedy",
    "phone": "N/A",
    "address": "N/A",
    "hours": "N/A",
    "website": "https://www.amazon.com/s?k=Alvin+and+the+Chipmunks+The+Road+Chip&tag=werewolf3788-20",
    "facebook": "ourflorafb-20",
    "bio": "The Chipmunks head to Miami to stop Dave from proposing.",
    "coupon_text": "Watch Now",
    "established": "2015",
    "coupon_link": "https://www.amazon.com/s?k=Alvin+and+the+Chipmunks+The+Road+Chip&tag=werewolf3788-20"
  },
  {
    "id": "074",
    "name": "Alvin and the Chipmunks: The Squeakquel",
    "town": "N/A",
    "tier": "Standard",
    "category": "Family/Comedy",
    "phone": "N/A",
    "address": "N/A",
    "hours": "N/A",
    "website": "https://www.amazon.com/s?k=Alvin+and+the+Chipmunks+The+Squeakquel&tag=werewolf3788-20",
    "facebook": "ourflorafb-20",
    "bio": "The Chipmunks must save the school's music program while competing with the Chipettes.",
    "coupon_text": "Watch Now",
    "established": "2009",
    "coupon_link": "https://www.amazon.com/s?k=Alvin+and+the+Chipmunks+The+Squeakquel&tag=werewolf3788-20"
  },
  {
    "id": "075",
    "name": "Ambulance",
    "town": "N/A",
    "tier": "Standard",
    "category": "Action/Thriller",
    "phone": "N/A",
    "address": "N/A",
    "hours": "N/A",
    "website": "https://www.amazon.com/s?k=Ambulance+Movie+2022&tag=werewolf3788-20",
    "facebook": "ourflorafb-20",
    "bio": "Two robbers steal an ambulance after their heist goes awry.",
    "coupon_text": "Watch Now",
    "established": "2022",
    "coupon_link": "https://www.amazon.com/s?k=Ambulance+Movie+2022&tag=werewolf3788-20"
  },
  {
    "id": "076",
    "name": "American Pie",
    "town": "N/A",
    "tier": "Standard",
    "category": "Comedy",
    "phone": "N/A",
    "address": "N/A",
    "hours": "N/A",
    "website": "https://www.amazon.com/s?k=American+Pie+Movie&tag=werewolf3788-20",
    "facebook": "ourflorafb-20",
    "bio": "Four teenage boys enter a pact to lose their virginity by prom night.",
    "coupon_text": "Watch Now",
    "established": "1999",
    "coupon_link": "https://www.amazon.com/s?k=American+Pie+Movie&tag=werewolf3788-20"
  },
  {
    "id": "077",
    "name": "American Pie 2",
    "town": "N/A",
    "tier": "Standard",
    "category": "Comedy",
    "phone": "N/A",
    "address": "N/A",
    "hours": "N/A",
    "website": "https://www.amazon.com/s?k=American+Pie+2&tag=werewolf3788-20",
    "facebook": "ourflorafb-20",
    "bio": "The gang reunites for a summer at a beach house.",
    "coupon_text": "Watch Now",
    "established": "2001",
    "coupon_link": "https://www.amazon.com/s?k=American+Pie+2&tag=werewolf3788-20"
  },
  {
    "id": "078",
    "name": "American Pie Presents: Band Camp",
    "town": "N/A",
    "tier": "Standard",
    "category": "Comedy",
    "phone": "N/A",
    "address": "N/A",
    "hours": "N/A",
    "website": "https://www.amazon.com/s?k=American+Pie+Presents+Band+Camp&tag=werewolf3788-20",
    "facebook": "ourflorafb-20",
    "bio": "Matt Stifler is sent to band camp where he learns to behave.",
    "coupon_text": "Watch Now",
    "established": "2005",
    "coupon_link": "https://www.amazon.com/s?k=American+Pie+Presents+Band+Camp&tag=werewolf3788-20"
  },
  {
    "id": "079",
    "name": "American Pie Presents: Beta House",
    "town": "N/A",
    "tier": "Standard",
    "category": "Comedy",
    "phone": "N/A",
    "address": "N/A",
    "hours": "N/A",
    "website": "https://www.amazon.com/s?k=American+Pie+Presents+Beta+House&tag=werewolf3788-20",
    "facebook": "ourflorafb-20",
    "bio": "Erik Stifler and his friend join the Beta House fraternity in college.",
    "coupon_text": "Watch Now",
    "established": "2007",
    "coupon_link": "https://www.amazon.com/s?k=American+Pie+Presents+Beta+House&tag=werewolf3788-20"
  },
  {
    "id": "080",
    "name": "American Pie Presents: The Naked Mile",
    "town": "N/A",
    "tier": "Standard",
    "category": "Comedy",
    "phone": "N/A",
    "address": "N/A",
    "hours": "N/A",
    "website": "https://www.amazon.com/s?k=American+Pie+The+Naked+Mile&tag=werewolf3788-20",
    "facebook": "ourflorafb-20",
    "bio": "Erik Stifler decides to participate in a legendary naked run at his university.",
    "coupon_text": "Watch Now",
    "established": "2006",
    "coupon_link": "https://www.amazon.com/s?k=American+Pie+The+Naked+Mile&tag=werewolf3788-20"
  },
  {
    "id": "081",
    "name": "American Pie Presents: Girls' Rules",
    "town": "N/A",
    "tier": "Standard",
    "category": "Comedy",
    "phone": "N/A",
    "address": "N/A",
    "hours": "N/A",
    "website": "https://www.amazon.com/s?k=American+Pie+Girls+Rules&tag=werewolf3788-20",
    "facebook": "ourflorafb-20",
    "bio": "Four high school seniors band together to get what they want in their final year.",
    "coupon_text": "Watch Now",
    "established": "2020",
    "coupon_link": "https://www.amazon.com/s?k=American+Pie+Girls+Rules&tag=werewolf3788-20"
  },
  {
    "id": "082",
    "name": "American Reunion",
    "town": "N/A",
    "tier": "Standard",
    "category": "Comedy",
    "phone": "N/A",
    "address": "N/A",
    "hours": "N/A",
    "website": "https://www.amazon.com/s?k=American+Reunion&tag=werewolf3788-20",
    "facebook": "ourflorafb-20",
    "bio": "The original gang returns to East Great Falls for their high-school reunion.",
    "coupon_text": "Watch Now",
    "established": "2012",
    "coupon_link": "https://www.amazon.com/s?k=American+Reunion&tag=werewolf3788-20"
  },
  {
    "id": "083",
    "name": "American Sniper",
    "town": "N/A",
    "tier": "Standard",
    "category": "War/Drama",
    "phone": "N/A",
    "address": "N/A",
    "hours": "N/A",
    "website": "https://www.amazon.com/s?k=American+Sniper+Movie&tag=werewolf3788-20",
    "facebook": "ourflorafb-20",
    "bio": "Navy SEAL sniper Chris Kyle's pinpoint accuracy saves countless lives on the battlefield.",
    "coupon_text": "Watch Now",
    "established": "2014",
    "coupon_link": "https://www.amazon.com/s?k=American+Sniper+Movie&tag=werewolf3788-20"
  },
  {
    "id": "084",
    "name": "American Wedding",
    "town": "N/A",
    "tier": "Standard",
    "category": "Comedy",
    "phone": "N/A",
    "address": "N/A",
    "hours": "N/A",
    "website": "https://www.amazon.com/s?k=American+Wedding+Movie&tag=werewolf3788-20",
    "facebook": "ourflorafb-20",
    "bio": "Jim and Michelle are getting married, and the gang gathers to celebrate.",
    "coupon_text": "Watch Now",
    "established": "2003",
    "coupon_link": "https://www.amazon.com/s?k=American+Wedding+Movie&tag=werewolf3788-20"
  },
  {
    "id": "085",
    "name": "Anastasia",
    "town": "N/A",
    "tier": "Standard",
    "category": "Animation/Family",
    "phone": "N/A",
    "address": "N/A",
    "hours": "N/A",
    "website": "https://www.amazon.com/s?k=Anastasia+Movie+1997&tag=werewolf3788-20",
    "facebook": "ourflorafb-20",
    "bio": "The last surviving child of the Russian Royal Family joins two con men to reunite with her grandmother.",
    "coupon_text": "Watch Now",
    "established": "1997",
    "coupon_link": "https://www.amazon.com/s?k=Anastasia+Movie+1997&tag=werewolf3788-20"
  },
  {
    "id": "086",
    "name": "Angels & Demons",
    "town": "N/A",
    "tier": "Standard",
    "category": "Thriller",
    "phone": "N/A",
    "address": "N/A",
    "hours": "N/A",
    "website": "https://www.amazon.com/s?k=Angels+and+Demons+Movie&tag=werewolf3788-20",
    "facebook": "ourflorafb-20",
    "bio": "Harvard symbologist Robert Langdon works with a nuclear physicist to solve a murder.",
    "coupon_text": "Watch Now",
    "established": "2009",
    "coupon_link": "https://www.amazon.com/s?k=Angels+and+Demons+Movie&tag=werewolf3788-20"
  },
  {
    "id": "087",
    "name": "Anger Management",
    "town": "N/A",
    "tier": "Standard",
    "category": "Comedy",
    "phone": "N/A",
    "address": "N/A",
    "hours": "N/A",
    "website": "https://www.amazon.com/s?k=Anger+Management+Movie&tag=werewolf3788-20",
    "facebook": "ourflorafb-20",
    "bio": "A mild-mannered man is ordered to undergo anger management therapy with an aggressive instructor.",
    "coupon_text": "Watch Now",
    "established": "2003",
    "coupon_link": "https://www.amazon.com/s?k=Anger+Management+Movie&tag=werewolf3788-20"
  },
  {
    "id": "088",
    "name": "Annabelle",
    "town": "N/A",
    "tier": "Standard",
    "category": "Horror",
    "phone": "N/A",
    "address": "N/A",
    "hours": "N/A",
    "website": "https://www.amazon.com/s?k=Annabelle+Movie&tag=werewolf3788-20",
    "facebook": "ourflorafb-20",
    "bio": "A couple begins to experience terrifying supernatural occurrences involving a vintage doll.",
    "coupon_text": "Watch Now",
    "established": "2014",
    "coupon_link": "https://www.amazon.com/s?k=Annabelle+Movie&tag=werewolf3788-20"
  },
  {
    "id": "089",
    "name": "Annie",
    "town": "N/A",
    "tier": "Standard",
    "category": "Musical/Family",
    "phone": "N/A",
    "address": "N/A",
    "hours": "N/A",
    "website": "https://www.amazon.com/s?k=Annie+Movie&tag=werewolf3788-20",
    "facebook": "ourflorafb-20",
    "bio": "A foster kid, who lives with her mean foster mom, sees her life change when a business tycoon takes her in.",
    "coupon_text": "Watch Now",
    "established": "2014",
    "coupon_link": "https://www.amazon.com/s?k=Annie+Movie&tag=werewolf3788-20"
  },
  {
    "id": "090",
    "name": "Ant-Man and the Wasp",
    "town": "N/A",
    "tier": "Standard",
    "category": "Action/Marvel",
    "phone": "N/A",
    "address": "N/A",
    "hours": "N/A",
    "website": "https://www.amazon.com/s?k=Ant-Man+and+the+Wasp&tag=werewolf3788-20",
    "facebook": "ourflorafb-20",
    "bio": "As Scott Lang balances being both a superhero and a father, Hope van Dyne and Dr. Hank Pym present an urgent new mission.",
    "coupon_text": "Watch Now",
    "established": "2018",
    "coupon_link": "https://www.amazon.com/s?k=Ant-Man+and+the+Wasp&tag=werewolf3788-20"
  },
  {
    "id": "091",
    "name": "Antz",
    "town": "N/A",
    "tier": "Standard",
    "category": "Animation/Family",
    "phone": "N/A",
    "address": "N/A",
    "hours": "N/A",
    "website": "https://www.amazon.com/s?k=Antz+Movie&tag=werewolf3788-20",
    "facebook": "ourflorafb-20",
    "bio": "A rather neurotic ant tries to break from his totalitarian society while trying to win the affection of the princess.",
    "coupon_text": "Watch Now",
    "established": "1998",
    "coupon_link": "https://www.amazon.com/s?k=Antz+Movie&tag=werewolf3788-20"
  },
  {
    "id": "092",
    "name": "Aquaman",
    "town": "N/A",
    "tier": "Standard",
    "category": "Action/Sci-Fi",
    "phone": "N/A",
    "address": "N/A",
    "hours": "N/A",
    "website": "https://www.amazon.com/s?k=Aquaman+Movie&tag=werewolf3788-20",
    "facebook": "ourflorafb-20",
    "bio": "Arthur Curry, the heir to the underwater kingdom of Atlantis, must step forward to lead his people.",
    "coupon_text": "Watch Now",
    "established": "2018",
    "coupon_link": "https://www.amazon.com/s?k=Aquaman+Movie&tag=werewolf3788-20"
  },
  {
    "id": "093",
    "name": "Aquaman and The Lost Kingdom",
    "town": "N/A",
    "tier": "Standard",
    "category": "Action/Sci-Fi",
    "phone": "N/A",
    "address": "N/A",
    "hours": "N/A",
    "website": "https://www.amazon.com/s?k=Aquaman+and+the+Lost+Kingdom&tag=werewolf3788-20",
    "facebook": "ourflorafb-20",
    "bio": "Black Manta unleashes an ancient and malevolent power, and Aquaman must forge an unlikely alliance.",
    "coupon_text": "Watch Now",
    "established": "2023",
    "coupon_link": "https://www.amazon.com/s?k=Aquaman+and+the+Lost+Kingdom&tag=werewolf3788-20"
  },
  {
    "id": "094",
    "name": "Aristocats",
    "town": "N/A",
    "tier": "Standard",
    "category": "Animation/Family",
    "phone": "N/A",
    "address": "N/A",
    "hours": "N/A",
    "website": "https://www.amazon.com/s?k=The+Aristocats+Disney&tag=werewolf3788-20",
    "facebook": "ourflorafb-20",
    "bio": "With the help of a smooth-talking alley cat, a family of Parisian felines set to inherit a fortune from their owner try to make it back home.",
    "coupon_text": "Watch Now",
    "established": "1970",
    "coupon_link": "https://www.amazon.com/s?k=The+Aristocats+Disney&tag=werewolf3788-20"
  },
  {
    "id": "095",
    "name": "Armed And Dangerous",
    "town": "N/A",
    "tier": "Standard",
    "category": "Comedy",
    "phone": "N/A",
    "address": "N/A",
    "hours": "N/A",
    "website": "https://www.amazon.com/s?k=Armed+and+Dangerous+Movie&tag=werewolf3788-20",
    "facebook": "ourflorafb-20",
    "bio": "An inept cop and an inept lawyer become security guards and uncover a major crime.",
    "coupon_text": "Watch Now",
    "established": "1986",
    "coupon_link": "https://www.amazon.com/s?k=Armed+and+Dangerous+Movie&tag=werewolf3788-20"
  },
  {
    "id": "096",
    "name": "Around the World in 80 Days (1956)",
    "town": "N/A",
    "tier": "Standard",
    "category": "Adventure/Comedy",
    "phone": "N/A",
    "address": "N/A",
    "hours": "N/A",
    "website": "https://www.amazon.com/s?k=Around+the+World+in+80+Days+1956&tag=werewolf3788-20",
    "facebook": "ourflorafb-20",
    "bio": "A Victorian gentleman bets that he can circumnavigate the globe in eighty days.",
    "coupon_text": "Watch Now",
    "established": "1956",
    "coupon_link": "https://www.amazon.com/s?k=Around+the+World+in+80+Days+1956&tag=werewolf3788-20"
  },
  {
    "id": "097",
    "name": "Around the World in 80 Days (2004)",
    "town": "N/A",
    "tier": "Standard",
    "category": "Adventure/Comedy",
    "phone": "N/A",
    "address": "N/A",
    "hours": "N/A",
    "website": "https://www.amazon.com/s?k=Around+the+World+in+80+Days+Jackie+Chan&tag=werewolf3788-20",
    "facebook": "ourflorafb-20",
    "bio": "To win a bet, an eccentric British inventor embarks on a flight around the world in 80 days.",
    "coupon_text": "Watch Now",
    "established": "2004",
    "coupon_link": "https://www.amazon.com/s?k=Around+the+World+in+80+Days+Jackie+Chan&tag=werewolf3788-20"
  },
  {
    "id": "001",
    "name": "Ghost Rider: Spirit Of Vengeance",
    "town": "N/A",
    "tier": "Standard",
    "category": "Action",
    "phone": "N/A",
    "address": "N/A",
    "hours": "N/A",
    "website": "https://www.amazon.com/dp/B00845Y8V6?tag=werewolf3788-20",
    "facebook": "ourflorafb-20",
    "bio": "Johnny Blaze is hiding out in Eastern Europe when he is called upon to stop the devil.",
    "coupon_text": "Watch Now",
    "established": "2012",
    "coupon_link": "https://www.amazon.com/dp/B00845Y8V6?tag=werewolf3788-20"
  },
  {
    "id": "002",
    "name": "John Carter",
    "town": "N/A",
    "tier": "Standard",
    "category": "Sci-Fi",
    "phone": "N/A",
    "address": "N/A",
    "hours": "N/A",
    "website": "https://www.amazon.com/dp/B00867GCVO?tag=werewolf3788-20",
    "facebook": "ourflorafb-20",
    "bio": "A Civil War vet discovers a barren planet inhabited by 12-foot tall barbarians.",
    "coupon_text": "Watch Now",
    "established": "2012",
    "coupon_link": "https://www.amazon.com/dp/B00867GCVO?tag=werewolf3788-20"
  },
  {
    "id": "003",
    "name": "Grown Ups",
    "town": "N/A",
    "tier": "Standard",
    "category": "Comedy",
    "phone": "N/A",
    "address": "N/A",
    "hours": "N/A",
    "website": "https://www.amazon.com/dp/B0045W066U?tag=werewolf3788-20",
    "facebook": "ourflorafb-20",
    "bio": "Five friends and former teammates reunite for a Fourth of July holiday weekend.",
    "coupon_text": "Watch Now",
    "established": "2010",
    "coupon_link": "https://www.amazon.com/dp/B0045W066U?tag=werewolf3788-20"
  },
  {
    "id": "004",
    "name": "Underdog",
    "town": "N/A",
    "tier": "Standard",
    "category": "Family",
    "phone": "N/A",
    "address": "N/A",
    "hours": "N/A",
    "website": "https://www.amazon.com/dp/B0013XW0S6?tag=werewolf3788-20",
    "facebook": "ourflorafb-20",
    "bio": "A beagle must use his newly-found superpowers to protect Capitol City.",
    "coupon_text": "Watch Now",
    "established": "2007",
    "coupon_link": "https://www.amazon.com/dp/B0013XW0S6?tag=werewolf3788-20"
  },
  {
    "id": "005",
    "name": "Percy Jackson & The Olympians: The Lightning Thief",
    "town": "N/A",
    "tier": "Standard",
    "category": "Fantasy",
    "phone": "N/A",
    "address": "N/A",
    "hours": "N/A",
    "website": "https://www.amazon.com/dp/B003LYZVM6?tag=werewolf3788-20",
    "facebook": "ourflorafb-20",
    "bio": "A teenager discovers he's the descendant of a Greek god.",
    "coupon_text": "Watch Now",
    "established": "2010",
    "coupon_link": "https://www.amazon.com/dp/B003LYZVM6?tag=werewolf3788-20"
  },
  {
    "id": "006",
    "name": "Journey 2: The Mysterious Island",
    "town": "N/A",
    "tier": "Standard",
    "category": "Adventure",
    "phone": "N/A",
    "address": "N/A",
    "hours": "N/A",
    "website": "https://www.amazon.com/dp/B007X5Z3K8?tag=werewolf3788-20",
    "facebook": "ourflorafb-20",
    "bio": "Sean Anderson partners with his mom's husband on a mission to find his grandfather.",
    "coupon_text": "Watch Now",
    "established": "2012",
    "coupon_link": "https://www.amazon.com/dp/B007X5Z3K8?tag=werewolf3788-20"
  },
  {
    "id": "007",
    "name": "Happy Feet Two",
    "town": "N/A",
    "tier": "Standard",
    "category": "Animation",
    "phone": "N/A",
    "address": "N/A",
    "hours": "N/A",
    "website": "https://www.amazon.com/dp/B0079I8SGO?tag=werewolf3788-20",
    "facebook": "ourflorafb-20",
    "bio": "Mumble's son, Erik, is struggling to realize his talents in the Emperor Penguin world.",
    "coupon_text": "Watch Now",
    "established": "2011",
    "coupon_link": "https://www.amazon.com/dp/B0079I8SGO?tag=werewolf3788-20"
  },
  {
    "id": "008",
    "name": "Blazing Saddles",
    "town": "N/A",
    "tier": "Premium",
    "category": "Comedy/Western",
    "phone": "N/A",
    "address": "N/A",
    "hours": "N/A",
    "website": "https://www.amazon.com/dp/B000I9S686?tag=werewolf3788-20",
    "facebook": "ourflorafb-20",
    "bio": "In order to ruin a western town, a corrupt politician appoints a black Sheriff.",
    "coupon_text": "Watch Now",
    "established": "1974",
    "coupon_link": "https://www.amazon.com/dp/B000I9S686?tag=werewolf3788-20"
  },
  {
    "id": "009",
    "name": "Hercules",
    "town": "N/A",
    "tier": "Standard",
    "category": "Animation/Family",
    "phone": "N/A",
    "address": "N/A",
    "hours": "N/A",
    "website": "https://www.amazon.com/dp/B00EAFSTV6?tag=werewolf3788-20",
    "facebook": "ourflorafb-20",
    "bio": "The son of Zeus must become a true hero on Earth to regain his divinity.",
    "coupon_text": "Watch Now",
    "established": "1997",
    "coupon_link": "https://www.amazon.com/dp/B00EAFSTV6?tag=werewolf3788-20"
  },
  {
    "id": "010",
    "name": "How to Train Your Dragon",
    "town": "N/A",
    "tier": "Standard",
    "category": "Animation",
    "phone": "N/A",
    "address": "N/A",
    "hours": "N/A",
    "website": "https://www.amazon.com/dp/B00466K9PC?tag=werewolf3788-20",
    "facebook": "ourflorafb-20",
    "bio": "A hapless young Viking aspires to hunt dragons and becomes the unlikely friend of a young dragon.",
    "coupon_text": "Watch Now",
    "established": "2010",
    "coupon_link": "https://www.amazon.com/dp/B00466K9PC?tag=werewolf3788-20"
  },
  {
    "id": "033",
    "name": "Wicked: For Good",
    "town": "N/A",
    "tier": "Premium",
    "category": "Musical/Fantasy",
    "phone": "N/A",
    "address": "N/A",
    "hours": "N/A",
    "website": "https://www.amazon.com/dp/B0DK9P56V1?tag=werewolf3788-20",
    "facebook": "ourflorafb-20",
    "bio": "The cinematic conclusion to the untold story of the witches of Oz.",
    "coupon_text": "Watch on Amazon",
    "established": "2025",
    "coupon_link": "https://www.amazon.com/dp/B0DK9P56V1?tag=werewolf3788-20"
  },
  {
    "id": "034",
    "name": "The Private Eyes",
    "town": "N/A",
    "tier": "Standard",
    "category": "Comedy/Mystery",
    "phone": "N/A",
    "address": "N/A",
    "hours": "N/A",
    "website": "https://www.amazon.com/dp/B000056N6Z?tag=werewolf3788-20",
    "facebook": "ourflorafb-20",
    "bio": "Two bumbling American detectives are hired to solve a murder in a mysterious English manor.",
    "coupon_text": "Watch Now",
    "established": "1980",
    "coupon_link": "https://www.amazon.com/dp/B000056N6Z?tag=werewolf3788-20"
  },
  {
    "id": "035",
    "name": "The Year Without A Santa Claus",
    "town": "N/A",
    "tier": "Standard",
    "category": "Holiday/Animation",
    "phone": "N/A",
    "address": "N/A",
    "hours": "N/A",
    "website": "https://www.amazon.com/dp/B000VMA66E?tag=werewolf3788-20",
    "facebook": "ourflorafb-20",
    "bio": "When a weary Santa decides to skip Christmas, Mrs. Claus and two elves set out to change his mind.",
    "coupon_text": "Holiday Classic",
    "established": "1974",
    "coupon_link": "https://www.amazon.com/dp/B000VMA66E?tag=werewolf3788-20"
  },
  {
    "id": "036",
    "name": "Predator: Badlands",
    "town": "N/A",
    "tier": "Premium",
    "category": "Sci-Fi/Action",
    "phone": "N/A",
    "address": "N/A",
    "hours": "N/A",
    "website": "https://www.amazon.com/dp/ASIN_PENDING?tag=werewolf3788-20",
    "facebook": "ourflorafb-20",
    "bio": "A standalone story in the Predator universe following a new group of survivors.",
    "coupon_text": "Watch Now",
    "established": "2025",
    "coupon_link": "https://www.amazon.com/dp/ASIN_PENDING?tag=werewolf3788-20"
  },
  {
    "id": "037",
    "name": "Christmas with the Kranks",
    "town": "N/A",
    "tier": "Standard",
    "category": "Comedy/Holiday",
    "phone": "N/A",
    "address": "N/A",
    "hours": "N/A",
    "website": "https://www.amazon.com/dp/B000782ALU?tag=werewolf3788-20",
    "facebook": "ourflorafb-20",
    "bio": "With their daughter away, the Kranks decide to skip Christmas, until she decides to come home.",
    "coupon_text": "Watch Now",
    "established": "2004",
    "coupon_link": "https://www.amazon.com/dp/B000782ALU?tag=werewolf3788-20"
  },
  {
    "id": "038",
    "name": "I Am Number Four",
    "town": "N/A",
    "tier": "Standard",
    "category": "Sci-Fi",
    "phone": "N/A",
    "address": "N/A",
    "hours": "N/A",
    "website": "https://www.amazon.com/dp/B004S8AUFO?tag=werewolf3788-20",
    "facebook": "ourflorafb-20",
    "bio": "Aliens and their Guardians are hiding on Earth from intergalactic bounty hunters.",
    "coupon_text": "Watch Now",
    "established": "2011",
    "coupon_link": "https://www.amazon.com/dp/B004S8AUFO?tag=werewolf3788-20"
  },
  {
    "id": "M001",
    "name": "1000 To 1: The Cory Weissman Story",
    "town": "N/A",
    "tier": "Standard",
    "category": "Drama/Sports",
    "phone": "N/A",
    "address": "N/A",
    "hours": "N/A",
    "website": "https://www.amazon.com/s?k=1000+To+1+Cory+Weissman&tag=werewolf3788-20",
    "facebook": "ourflorafb-20",
    "bio": "The true story of a young basketball player who suffers a stroke and fights to return to the court.",
    "coupon_text": "Watch Now",
    "established": "2014",
    "coupon_link": "https://www.amazon.com/s?k=1000+To+1+Cory+Weissman&tag=werewolf3788-20"
  },
  {
    "id": "M002",
    "name": "Deadpool & Wolverine",
    "town": "N/A",
    "tier": "Premium",
    "category": "Action/Marvel",
    "phone": "N/A",
    "address": "N/A",
    "hours": "N/A",
    "website": "https://www.amazon.com/dp/B0D9S5M6V1?tag=werewolf3788-20",
    "facebook": "ourflorafb-20",
    "bio": "A weary Wolverine finds himself recovering from his injuries when he comes across a loudmouth Deadpool.",
    "coupon_text": "Watch on Amazon",
    "established": "2024",
    "coupon_link": "https://www.amazon.com/dp/B0D9S5M6V1?tag=werewolf3788-20"
  },
  {
    "id": "T001",
    "name": "The Big Bang Theory",
    "town": "N/A",
    "tier": "TV Show",
    "category": "Sitcom",
    "phone": "N/A",
    "address": "N/A",
    "hours": "N/A",
    "website": "https://www.amazon.com/s?k=The+Big+Bang+Theory+Complete+Series&tag=werewolf3788-20",
    "facebook": "ourflorafb-20",
    "bio": "A woman who moves into an apartment across the hall from two brilliant but socially awkward physicists.",
    "coupon_text": "Stream Now",
    "established": "2007-2019",
    "coupon_link": "https://www.amazon.com/s?k=The+Big+Bang+Theory+Complete+Series&tag=werewolf3788-20"
  },
  {
    "id": "039",
    "name": "12 Rounds 3 Lockdown",
    "town": "N/A",
    "tier": "Standard",
    "category": "Action",
    "phone": "N/A",
    "address": "N/A",
    "hours": "N/A",
    "website": "https://www.amazon.com/s?k=12+Rounds+3+Lockdown&tag=werewolf3788-20",
    "facebook": "ourflorafb-20",
    "bio": "A police officer finds himself trapped in his own precinct while being hunted by crooked cops.",
    "coupon_text": "Watch Now",
    "established": "2015",
    "coupon_link": "https://www.amazon.com/s?k=12+Rounds+3+Lockdown&tag=werewolf3788-20"
  },
  {
    "id": "040",
    "name": "2 Guns",
    "town": "N/A",
    "tier": "Standard",
    "category": "Action/Comedy",
    "phone": "N/A",
    "address": "N/A",
    "hours": "N/A",
    "website": "https://www.amazon.com/s?k=2+Guns+Movie&tag=werewolf3788-20",
    "facebook": "ourflorafb-20",
    "bio": "Two undercover agents from different agencies are forced on the run together.",
    "coupon_text": "Watch Now",
    "established": "2013",
    "coupon_link": "https://www.amazon.com/s?k=2+Guns+Movie&tag=werewolf3788-20"
  },
  {
    "id": "041",
    "name": "2012",
    "town": "N/A",
    "tier": "Standard",
    "category": "Sci-Fi/Action",
    "phone": "N/A",
    "address": "N/A",
    "hours": "N/A",
    "website": "https://www.amazon.com/s?k=2012+Movie&tag=werewolf3788-20",
    "facebook": "ourflorafb-20",
    "bio": "A frustrated writer struggles to keep his family alive when a series of global catastrophes threatens to annihilate mankind.",
    "coupon_text": "Watch Now",
    "established": "2009",
    "coupon_link": "https://www.amazon.com/s?k=2012+Movie&tag=werewolf3788-20"
  },
  {
    "id": "042",
    "name": "21 Jump Street",
    "town": "N/A",
    "tier": "Standard",
    "category": "Comedy",
    "phone": "N/A",
    "address": "N/A",
    "hours": "N/A",
    "website": "https://www.amazon.com/s?k=21+Jump+Street&tag=werewolf3788-20",
    "facebook": "ourflorafb-20",
    "bio": "Two bumbling cops go undercover as high school students to bust a drug ring.",
    "coupon_text": "Watch Now",
    "established": "2012",
    "coupon_link": "https://www.amazon.com/s?k=21+Jump+Street&tag=werewolf3788-20"
  },
  {
    "id": "043",
    "name": "22 Jump Street",
    "town": "N/A",
    "tier": "Standard",
    "category": "Comedy",
    "phone": "N/A",
    "address": "N/A",
    "hours": "N/A",
    "website": "https://www.amazon.com/s?k=22+Jump+Street&tag=werewolf3788-20",
    "facebook": "ourflorafb-20",
    "bio": "Officers Schmidt and Jenko go undercover at a local college.",
    "coupon_text": "Watch Now",
    "established": "2014",
    "coupon_link": "https://www.amazon.com/s?k=22+Jump+Street&tag=werewolf3788-20"
  },
  {
    "id": "044",
    "name": "300: Rise of an Empire",
    "town": "N/A",
    "tier": "Standard",
    "category": "Action",
    "phone": "N/A",
    "address": "N/A",
    "hours": "N/A",
    "website": "https://www.amazon.com/s?k=300+Rise+of+an+Empire&tag=werewolf3788-20",
    "facebook": "ourflorafb-20",
    "bio": "Greek general Themistokles attempts to unite all of Greece by leading the charge that will change the course of the war.",
    "coupon_text": "Watch Now",
    "established": "2014",
    "coupon_link": "https://www.amazon.com/s?k=300+Rise+of+an+Empire&tag=werewolf3788-20"
  },
  {
    "id": "045",
    "name": "42",
    "town": "N/A",
    "tier": "Standard",
    "category": "Biography/Drama",
    "phone": "N/A",
    "address": "N/A",
    "hours": "N/A",
    "website": "https://www.amazon.com/s?k=42+Jackie+Robinson+Movie&tag=werewolf3788-20",
    "facebook": "ourflorafb-20",
    "bio": "The story of Jackie Robinson and his history-making signing with the Brooklyn Dodgers.",
    "coupon_text": "Watch Now",
    "established": "2013",
    "coupon_link": "https://www.amazon.com/s?k=42+Jackie+Robinson+Movie&tag=werewolf3788-20"
  },
  {
    "id": "046",
    "name": "57 Seconds",
    "town": "N/A",
    "tier": "Standard",
    "category": "Sci-Fi/Thriller",
    "phone": "N/A",
    "address": "N/A",
    "hours": "N/A",
    "website": "https://www.amazon.com/s?k=57+Seconds+Movie&tag=werewolf3788-20",
    "facebook": "ourflorafb-20",
    "bio": "A tech blogger discovers a time-altering ring that allows him to travel 57 seconds into the past.",
    "coupon_text": "Watch Now",
    "established": "2023",
    "coupon_link": "https://www.amazon.com/s?k=57+Seconds+Movie&tag=werewolf3788-20"
  },
  {
    "id": "047",
    "name": "65",
    "town": "N/A",
    "tier": "Standard",
    "category": "Sci-Fi/Action",
    "phone": "N/A",
    "address": "N/A",
    "hours": "N/A",
    "website": "https://www.amazon.com/s?k=65+Movie&tag=werewolf3788-20",
    "facebook": "ourflorafb-20",
    "bio": "An astronaut crashes on a mysterious planet only to discover he's actually on Earth 65 million years ago.",
    "coupon_text": "Watch Now",
    "established": "2023",
    "coupon_link": "https://www.amazon.com/s?k=65+Movie&tag=werewolf3788-20"
  },
  {
    "id": "048",
    "name": "A Good Day to Die Hard",
    "town": "N/A",
    "tier": "Standard",
    "category": "Action",
    "phone": "N/A",
    "address": "N/A",
    "hours": "N/A",
    "website": "https://www.amazon.com/s?k=A+Good+Day+to+Die+Hard&tag=werewolf3788-20",
    "facebook": "ourflorafb-20",
    "bio": "John McClane travels to Russia to help out his seemingly wayward son, Jack.",
    "coupon_text": "Watch Now",
    "established": "2013",
    "coupon_link": "https://www.amazon.com/s?k=A+Good+Day+to+Die+Hard&tag=werewolf3788-20"
  },
  {
    "id": "049",
    "name": "A Goofy Movie",
    "town": "N/A",
    "tier": "Standard",
    "category": "Animation/Family",
    "phone": "N/A",
    "address": "N/A",
    "hours": "N/A",
    "website": "https://www.amazon.com/s?k=A+Goofy+Movie&tag=werewolf3788-20",
    "facebook": "ourflorafb-20",
    "bio": "Goofy and Max embark on a cross-country fishing trip.",
    "coupon_text": "Watch Now",
    "established": "1995",
    "coupon_link": "https://www.amazon.com/s?k=A+Goofy+Movie&tag=werewolf3788-20"
  },
  {
    "id": "050",
    "name": "A History of Violence",
    "town": "N/A",
    "tier": "Standard",
    "category": "Crime/Drama",
    "phone": "N/A",
    "address": "N/A",
    "hours": "N/A",
    "website": "https://www.amazon.com/s?k=A+History+of+Violence&tag=werewolf3788-20",
    "facebook": "ourflorafb-20",
    "bio": "A mild-mannered man becomes a local hero through an act of violence, but his past comes back to haunt him.",
    "coupon_text": "Watch Now",
    "established": "2005",
    "coupon_link": "https://www.amazon.com/s?k=A+History+of+Violence&tag=werewolf3788-20"
  },
  {
    "id": "051",
    "name": "A League Of Their Own",
    "town": "N/A",
    "tier": "Standard",
    "category": "Comedy/Sports",
    "phone": "N/A",
    "address": "N/A",
    "hours": "N/A",
    "website": "https://www.amazon.com/s?k=A+League+Of+Their+Own&tag=werewolf3788-20",
    "facebook": "ourflorafb-20",
    "bio": "Two sisters join the first female professional baseball league and struggle to help it succeed.",
    "coupon_text": "Watch Now",
    "established": "1992",
    "coupon_link": "https://www.amazon.com/s?k=A+League+Of+Their+Own&tag=werewolf3788-20"
  },
  {
    "id": "052",
    "name": "A Walk to Remember",
    "town": "N/A",
    "tier": "Standard",
    "category": "Romance/Drama",
    "phone": "N/A",
    "address": "N/A",
    "hours": "N/A",
    "website": "https://www.amazon.com/s?k=A+Walk+to+Remember&tag=werewolf3788-20",
    "facebook": "ourflorafb-20",
    "bio": "The story of two North Carolina teens, Landon Carter and Jamie Sullivan, who are thrown together after Landon gets into trouble.",
    "coupon_text": "Watch Now",
    "established": "2002",
    "coupon_link": "https://www.amazon.com/s?k=A+Walk+to+Remember&tag=werewolf3788-20"
  },
  {
    "id": "053",
    "name": "A Working Man",
    "town": "N/A",
    "tier": "Standard",
    "category": "Drama",
    "phone": "N/A",
    "address": "N/A",
    "hours": "N/A",
    "website": "https://www.amazon.com/s?k=A+Working+Man+Movie&tag=werewolf3788-20",
    "facebook": "ourflorafb-20",
    "bio": "A story about a factory worker who continues to show up for work even after the plant has closed.",
    "coupon_text": "Watch Now",
    "established": "2020",
    "coupon_link": "https://www.amazon.com/s?k=A+Working+Man+Movie&tag=werewolf3788-20"
  },
  {
    "id": "054",
    "name": "A-X-L",
    "town": "N/A",
    "tier": "Standard",
    "category": "Sci-Fi/Adventure",
    "phone": "N/A",
    "address": "N/A",
    "hours": "N/A",
    "website": "https://www.amazon.com/s?k=AXL+Movie&tag=werewolf3788-20",
    "facebook": "ourflorafb-20",
    "bio": "A robotic dog developed by the military is found by a young motocross rider.",
    "coupon_text": "Watch Now",
    "established": "2018",
    "coupon_link": "https://www.amazon.com/s?k=AXL+Movie&tag=werewolf3788-20"
  },
  {
    "id": "055",
    "name": "A.I. Artificial Intelligence",
    "town": "N/A",
    "tier": "Standard",
    "category": "Sci-Fi/Drama",
    "phone": "N/A",
    "address": "N/A",
    "hours": "N/A",
    "website": "https://www.amazon.com/s?k=AI+Artificial+Intelligence&tag=werewolf3788-20",
    "facebook": "ourflorafb-20",
    "bio": "A highly advanced robotic boy longs to become real so that he can regain the love of his human mother.",
    "coupon_text": "Watch Now",
    "established": "2001",
    "coupon_link": "https://www.amazon.com/s?k=AI+Artificial+Intelligence&tag=werewolf3788-20"
  },
  {
    "id": "056",
    "name": "After Earth",
    "town": "N/A",
    "tier": "Standard",
    "category": "Sci-Fi/Action",
    "phone": "N/A",
    "address": "N/A",
    "hours": "N/A",
    "website": "https://www.amazon.com/s?k=After+Earth+Movie&tag=werewolf3788-20",
    "facebook": "ourflorafb-20",
    "bio": "A father and son crash-land on Earth 1,000 years after events forced humanity's escape.",
    "coupon_text": "Watch Now",
    "established": "2013",
    "coupon_link": "https://www.amazon.com/s?k=After+Earth+Movie&tag=werewolf3788-20"
  },
  {
    "id": "057",
    "name": "Air Bud",
    "town": "N/A",
    "tier": "Standard",
    "category": "Family/Comedy",
    "phone": "N/A",
    "address": "N/A",
    "hours": "N/A",
    "website": "https://www.amazon.com/s?k=Air+Bud&tag=werewolf3788-20",
    "facebook": "ourflorafb-20",
    "bio": "A golden retriever with an uncanny ability to play basketball joins a school team.",
    "coupon_text": "Watch Now",
    "established": "1997",
    "coupon_link": "https://www.amazon.com/s?k=Air+Bud&tag=werewolf3788-20"
  },
  {
    "id": "058",
    "name": "Air Bud: Golden Receiver",
    "town": "N/A",
    "tier": "Standard",
    "category": "Family/Comedy",
    "phone": "N/A",
    "address": "N/A",
    "hours": "N/A",
    "website": "https://www.amazon.com/s?k=Air+Bud+Golden+Receiver&tag=werewolf3788-20",
    "facebook": "ourflorafb-20",
    "bio": "The talented golden retriever takes up football.",
    "coupon_text": "Watch Now",
    "established": "1998",
    "coupon_link": "https://www.amazon.com/s?k=Air+Bud+Golden+Receiver&tag=werewolf3788-20"
  },
  {
    "id": "059",
    "name": "Air Bud: Seventh Inning Fetch",
    "town": "N/A",
    "tier": "Standard",
    "category": "Family/Comedy",
    "phone": "N/A",
    "address": "N/A",
    "hours": "N/A",
    "website": "https://www.amazon.com/s?k=Air+Bud+Seventh+Inning+Fetch&tag=werewolf3788-20",
    "facebook": "ourflorafb-20",
    "bio": "Buddy the dog masters the game of baseball.",
    "coupon_text": "Watch Now",
    "established": "2002",
    "coupon_link": "https://www.amazon.com/s?k=Air+Bud+Seventh+Inning+Fetch&tag=werewolf3788-20"
  },
  {
    "id": "060",
    "name": "Airport",
    "town": "N/A",
    "tier": "Standard",
    "category": "Thriller/Drama",
    "phone": "N/A",
    "address": "N/A",
    "hours": "N/A",
    "website": "https://www.amazon.com/s?k=Airport+1970+Movie&tag=werewolf3788-20",
    "facebook": "ourflorafb-20",
    "bio": "A bomber on board an airplane, an airport closed by snow, and various personal problems hamper air traffic.",
    "coupon_text": "Watch Now",
    "established": "1970",
    "coupon_link": "https://www.amazon.com/s?k=Airport+1970+Movie&tag=werewolf3788-20"
  },
  {
    "id": "061",
    "name": "Aladdin (1992)",
    "town": "N/A",
    "tier": "Standard",
    "category": "Animation/Family",
    "phone": "N/A",
    "address": "N/A",
    "hours": "N/A",
    "website": "https://www.amazon.com/s?k=Aladdin+1992+Movie&tag=werewolf3788-20",
    "facebook": "ourflorafb-20",
    "bio": "A kindhearted street urchin and a power-hungry Grand Vizier vie for a magic lamp that has the power to make their deepest wishes come true.",
    "coupon_text": "Watch Now",
    "established": "1992",
    "coupon_link": "https://www.amazon.com/s?k=Aladdin+1992+Movie&tag=werewolf3788-20"
  },
  {
    "id": "062",
    "name": "Aladdin (2019)",
    "town": "N/A",
    "tier": "Standard",
    "category": "Fantasy/Musical",
    "phone": "N/A",
    "address": "N/A",
    "hours": "N/A",
    "website": "https://www.amazon.com/s?k=Aladdin+2019+Movie&tag=werewolf3788-20",
    "facebook": "ourflorafb-20",
    "bio": "Live-action adaptation of the Disney animated classic.",
    "coupon_text": "Watch Now",
    "established": "2019",
    "coupon_link": "https://www.amazon.com/s?k=Aladdin+2019+Movie&tag=werewolf3788-20"
  },
  {
    "id": "063",
    "name": "Aladdin and the King of Thieves",
    "town": "N/A",
    "tier": "Standard",
    "category": "Animation/Family",
    "phone": "N/A",
    "address": "N/A",
    "hours": "N/A",
    "website": "https://www.amazon.com/s?k=Aladdin+and+the+King+of+Thieves&tag=werewolf3788-20",
    "facebook": "ourflorafb-20",
    "bio": "Aladdin discovers that his long-lost father is the leader of the Forty Thieves.",
    "coupon_text": "Watch Now",
    "established": "1996",
    "coupon_link": "https://www.amazon.com/s?k=Aladdin+and+the+King+of+Thieves&tag=werewolf3788-20"
  },
  {
    "id": "064",
    "name": "Aladdin II: The Return of Jafar",
    "town": "N/A",
    "tier": "Standard",
    "category": "Animation/Family",
    "phone": "N/A",
    "address": "N/A",
    "hours": "N/A",
    "website": "https://www.amazon.com/s?k=The+Return+of+Jafar&tag=werewolf3788-20",
    "facebook": "ourflorafb-20",
    "bio": "Jafar returns for revenge after being trapped in a lamp.",
    "coupon_text": "Watch Now"
  },
   {
    "id": "104",
    "name": "August Rush",
    "town": "N/A",
    "tier": "Standard",
    "category": "Drama/Music",
    "phone": "N/A",
    "address": "N/A",
    "hours": "N/A",
    "website": "https://www.amazon.com/s?k=August+Rush+Movie&tag=werewolf3788-20",
    "facebook": "ourflorafb-20",
    "bio": "A musical prodigy uses his extraordinary gift to find his birth parents after being separated at birth.",
    "coupon_text": "Watch Now",
    "established": "2007",
    "coupon_link": "https://www.amazon.com/s?k=August+Rush+Movie&tag=werewolf3788-20"
  },
  {
    "id": "105",
    "name": "Avatar",
    "town": "N/A",
    "tier": "Standard",
    "category": "Sci-Fi/Action",
    "phone": "N/A",
    "address": "N/A",
    "hours": "N/A",
    "website": "https://www.amazon.com/s?k=Avatar+2009+Movie&tag=werewolf3788-20",
    "facebook": "ourflorafb-20",
    "bio": "A paraplegic Marine dispatched to the moon Pandora on a unique mission becomes torn between following orders and protecting an alien world.",
    "coupon_text": "Watch Now",
    "established": "2009",
    "coupon_link": "https://www.amazon.com/s?k=Avatar+2009+Movie&tag=werewolf3788-20"
  },
  {
    "id": "106",
    "name": "Avatar: The Way of Water",
    "town": "N/A",
    "tier": "Standard",
    "category": "Sci-Fi/Action",
    "phone": "N/A",
    "address": "N/A",
    "hours": "N/A",
    "website": "https://www.amazon.com/s?k=Avatar+The+Way+of+Water&tag=werewolf3788-20",
    "facebook": "ourflorafb-20",
    "bio": "Jake Sully and Neytiri have formed a family and are doing everything to stay together while exploring the vast regions of Pandora.",
    "coupon_text": "Watch Now",
    "established": "2022",
    "coupon_link": "https://www.amazon.com/s?k=Avatar+The+Way+of+Water&tag=werewolf3788-20"
  },
  {
    "id": "107",
    "name": "Babe",
    "town": "N/A",
    "tier": "Standard",
    "category": "Family/Comedy",
    "phone": "N/A",
    "address": "N/A",
    "hours": "N/A",
    "website": "https://www.amazon.com/s?k=Babe+Movie&tag=werewolf3788-20",
    "facebook": "ourflorafb-20",
    "bio": "Babe, a pig raised by sheepdogs, learns to herd sheep with a little help from Farmer Hoggett.",
    "coupon_text": "Watch Now",
    "established": "1995",
    "coupon_link": "https://www.amazon.com/s?k=Babe+Movie&tag=werewolf3788-20"
  },
  {
    "id": "108",
    "name": "Babylon A.D.",
    "town": "N/A",
    "tier": "Standard",
    "category": "Sci-Fi/Action",
    "phone": "N/A",
    "address": "N/A",
    "hours": "N/A",
    "website": "https://www.amazon.com/s?k=Babylon+AD+Movie&tag=werewolf3788-20",
    "facebook": "ourflorafb-20",
    "bio": "A mercenary is hired to escort a woman from Russia to Germany, unaware she's carrying an organism a cult wants to exploit.",
    "coupon_text": "Watch Now",
    "established": "2008",
    "coupon_link": "https://www.amazon.com/s?k=Babylon+AD+Movie&tag=werewolf3788-20"
  },
  {
    "id": "109",
    "name": "Baby's Day Out",
    "town": "N/A",
    "tier": "Standard",
    "category": "Family/Comedy",
    "phone": "N/A",
    "address": "N/A",
    "hours": "N/A",
    "website": "https://www.amazon.com/s?k=Babys+Day+Out+Movie&tag=werewolf3788-20",
    "facebook": "ourflorafb-20",
    "bio": "After three kidnappers pose as photographers to abduct a baby from a wealthy family, the toddler escapes and leads them on a wild chase.",
    "coupon_text": "Watch Now",
    "established": "1994",
    "coupon_link": "https://www.amazon.com/s?k=Babys+Day+Out+Movie&tag=werewolf3788-20"
  }
 [
